City_ID,City,Country,Date,Lat,Lng,Max Temp,Humidity,Cloudiness,Wind Speed,Weather Description
0,Georgetown,MY,2021-08-07 22:07:59,5.4112,100.3354,81.9,86,20,4.61,thunderstorm
1,Mataura,NZ,2021-08-07 22:07:26,-46.1927,168.8643,36.48,94,100,1.21,overcast clouds
2,Port-Cartier,CA,2021-08-07 22:07:49,50.0334,-66.8654,69.93,59,79,10.51,broken clouds
3,Hobart,AU,2021-08-07 22:11:33,-42.8794,147.3294,36.27,88,0,1.99,clear sky
4,Barrow,US,2021-08-07 22:11:33,71.2906,-156.7887,39.22,73,75,9.22,broken clouds
5,Ushuaia,AR,2021-08-07 22:11:34,-54.8,-68.3,29.86,93,90,35.68,snow
6,Conselheiro Pena,BR,2021-08-07 22:11:34,-19.1722,-41.4722,67.42,70,100,9.48,light rain
7,Touros,BR,2021-08-07 22:11:34,-5.1989,-35.4608,77.9,77,73,17.87,broken clouds
8,Mattoon,US,2021-08-07 22:07:50,39.4831,-88.3728,87.6,65,1,11.5,clear sky
9,Meadow Lake,US,2021-08-07 22:07:50,34.8014,-106.5436,97.68,15,42,15.19,scattered clouds
10,Lalmohan,BD,2021-08-07 22:07:51,22.3384,90.7419,82.15,85,98,13.13,overcast clouds
11,Punta Arenas,CL,2021-08-07 22:07:38,-53.15,-70.9167,35.71,80,0,26.46,clear sky
12,Sioux Lookout,CA,2021-08-07 22:07:51,50.1001,-91.917,77.27,39,99,7.2,overcast clouds
13,Faanui,PF,2021-08-07 22:09:18,-16.4833,-151.75,78.22,72,27,6.89,scattered clouds
14,Portland,US,2021-08-07 22:10:52,45.5234,-122.6762,84.45,62,90,1.01,overcast clouds
15,Upernavik,GL,2021-08-07 22:11:37,72.7868,-56.1549,40.84,95,100,9.42,overcast clouds
16,Andenes,NO,2021-08-07 22:03:51,69.3143,16.1194,61.47,82,77,2.3,broken clouds
17,Kavaratti,IN,2021-08-07 22:11:38,10.5669,72.642,81.0,79,100,20.13,overcast clouds
18,Bluff,NZ,2021-08-07 22:11:38,-46.6,168.3333,36.81,77,100,3.09,overcast clouds
19,Bethel,US,2021-08-07 22:11:39,41.3712,-73.414,82.49,70,1,4.61,clear sky
20,Ilulissat,GL,2021-08-07 22:11:39,69.2167,-51.1,46.42,57,20,3.44,few clouds
21,Avarua,CK,2021-08-07 22:11:39,-21.2078,-159.775,78.85,69,20,8.05,few clouds
22,Provideniya,RU,2021-08-07 22:07:26,64.3833,-173.3,44.71,81,100,6.2,light rain
23,Verkhnyaya Inta,RU,2021-08-07 22:07:53,65.9811,60.3094,51.89,95,100,6.35,overcast clouds
24,Mahajanga,MG,2021-08-07 22:05:31,-15.7167,46.3167,69.82,88,20,3.44,few clouds
25,Ostrovnoy,RU,2021-08-07 22:11:40,68.0531,39.5131,54.45,82,8,9.55,clear sky
26,Ambilobe,MG,2021-08-07 22:11:40,-13.2,49.05,69.46,84,89,2.71,overcast clouds
27,Houma,US,2021-08-07 22:07:54,29.5958,-90.7195,95.0,55,41,4.94,scattered clouds
28,Leningradskiy,RU,2021-08-07 22:11:41,69.3833,178.4167,38.55,76,87,13.89,overcast clouds
29,Khatanga,RU,2021-08-07 22:11:42,71.9667,102.5,51.87,69,37,7.0,scattered clouds
30,Mahebourg,MU,2021-08-07 22:11:42,-20.4081,57.7,68.29,88,75,3.44,broken clouds
31,Morondava,MG,2021-08-07 22:01:50,-20.2833,44.2833,70.72,58,0,14.03,clear sky
32,Jamestown,US,2021-08-07 22:07:46,42.097,-79.2353,78.39,71,1,3.0,clear sky
33,Bangor,GB,2021-08-07 22:07:55,54.6534,-5.669,59.29,94,75,2.3,broken clouds
34,Chokurdakh,RU,2021-08-07 22:11:43,70.6333,147.9167,58.6,45,36,7.11,scattered clouds
35,Havoysund,NO,2021-08-07 22:11:43,70.9963,24.6622,59.88,73,85,6.91,overcast clouds
36,Jibuti,DJ,2021-08-07 22:07:56,11.5,42.5,87.22,49,55,4.97,broken clouds
37,Izvestkovyy,RU,2021-08-07 22:07:56,48.9833,131.55,57.31,96,100,6.31,overcast clouds
38,Busselton,AU,2021-08-07 22:11:44,-33.65,115.3333,57.09,91,96,3.83,overcast clouds
39,Saint-Philippe,RE,2021-08-07 22:09:27,-21.3585,55.7679,69.35,80,39,12.37,light rain
40,Martapura,ID,2021-08-07 22:07:57,-3.4167,114.85,77.09,94,90,1.14,overcast clouds
41,Vaini,TO,2021-08-07 22:07:57,-21.2,-175.2,71.76,73,75,5.75,broken clouds
42,Hasaki,JP,2021-08-07 22:11:45,35.7333,140.8333,77.4,94,100,17.98,heavy intensity rain
43,Svetlaya,RU,2021-08-07 22:11:45,46.5389,138.3297,59.86,94,100,19.1,moderate rain
44,Port Alfred,ZA,2021-08-07 22:11:45,-33.5906,26.891,59.04,84,71,12.68,broken clouds
45,Piedras Negras,MX,2021-08-07 22:07:58,28.7,-100.5167,97.38,44,1,11.5,clear sky
46,Poum,NC,2021-08-07 22:03:36,-20.2333,164.0167,70.11,68,99,7.78,overcast clouds
47,Tshela,CD,2021-08-07 22:07:59,-4.9833,12.9333,67.57,97,79,3.0,broken clouds
48,Aksarka,RU,2021-08-07 22:11:25,66.5606,67.7975,57.11,73,76,14.83,broken clouds
49,Wladyslawowo,PL,2021-08-07 22:07:59,54.7909,18.4009,65.93,82,100,9.35,overcast clouds
50,Beringovskiy,RU,2021-08-07 22:11:46,63.05,179.3167,43.27,88,100,24.43,light rain
51,Port Elizabeth,ZA,2021-08-07 22:11:47,-33.918,25.5701,57.43,84,100,7.38,overcast clouds
52,Airai,TL,2021-08-07 22:11:47,-8.9266,125.4092,52.21,66,21,2.77,few clouds
53,Plouzane,FR,2021-08-07 22:04:11,48.3833,-4.6167,57.52,88,75,6.91,broken clouds
54,Zlynka,RU,2021-08-07 22:08:00,52.4267,31.7378,56.32,93,74,6.04,broken clouds
55,New Norfolk,AU,2021-08-07 22:07:27,-42.7826,147.0587,35.92,87,99,2.75,overcast clouds
56,Vera Cruz,BR,2021-08-07 22:08:01,-12.6333,-41.0333,68.49,64,78,8.79,broken clouds
57,Ranikhet,IN,2021-08-07 22:08:01,29.65,79.4167,63.7,91,97,1.79,overcast clouds
58,Aras,ES,2021-08-07 22:08:01,42.5617,-2.356,63.01,55,90,3.44,overcast clouds
59,Guerrero Negro,MX,2021-08-07 22:03:59,27.9769,-114.0611,81.16,56,49,13.58,scattered clouds
60,Cidreira,BR,2021-08-07 22:08:14,-30.1811,-50.2056,61.23,90,2,11.61,clear sky
61,Kodinsk,RU,2021-08-07 22:08:02,58.6881,99.1844,57.52,66,77,2.3,broken clouds
62,Victoria,HK,2021-08-07 22:07:46,22.2855,114.1577,84.33,89,93,6.08,overcast clouds
63,Hithadhoo,MV,2021-08-07 22:11:50,-0.6,73.0833,81.91,74,100,8.25,overcast clouds
64,Isangel,VU,2021-08-07 22:11:50,-19.55,169.2667,75.31,64,75,10.36,haze
65,Vila Velha,BR,2021-08-07 22:11:50,-20.3297,-40.2925,66.15,94,90,6.91,overcast clouds
66,Luocheng,CN,2021-08-07 22:08:03,29.3848,104.0286,75.09,93,100,1.68,light rain
67,Lerik,AZ,2021-08-07 22:08:03,38.7726,48.4128,60.44,46,83,5.39,broken clouds
68,Hermanus,ZA,2021-08-07 22:11:51,-34.4187,19.2345,49.8,74,96,2.44,overcast clouds
69,Chicama,PE,2021-08-07 22:11:52,-7.8447,-79.1469,63.14,70,8,10.18,clear sky
70,Sarakhs,IR,2021-08-07 22:08:04,36.5449,61.1577,82.54,24,0,2.3,clear sky
71,Mar Del Plata,AR,2021-08-07 22:07:17,-38.0023,-57.5575,51.82,87,20,10.36,few clouds
72,Rikitea,PF,2021-08-07 22:07:48,-23.1203,-134.9692,74.07,79,12,13.73,few clouds
73,Coquimbo,CL,2021-08-07 22:10:38,-29.9533,-71.3436,56.93,67,75,11.5,broken clouds
74,Torbay,CA,2021-08-07 22:03:20,47.6666,-52.7314,72.57,81,95,4.0,overcast clouds
75,Perevolotskiy,RU,2021-08-07 22:08:05,51.8763,54.1938,64.42,41,23,6.33,few clouds
76,Narsaq,GL,2021-08-07 22:11:53,60.9167,-46.05,48.42,95,100,7.92,moderate rain
77,Ladario,BR,2021-08-07 22:08:06,-19.0047,-57.6017,82.26,27,0,2.59,clear sky
78,Lebu,CL,2021-08-07 22:09:33,-37.6167,-73.65,48.76,75,27,21.7,scattered clouds
79,Tonder,DK,2021-08-07 22:08:06,54.9331,8.8667,61.21,92,97,6.49,overcast clouds
80,Norman Wells,CA,2021-08-07 22:11:54,65.282,-126.8329,48.51,60,100,7.78,overcast clouds
81,Bergen,NO,2021-08-07 22:08:07,60.392,5.328,63.64,74,75,1.14,light rain
82,Kyabe,TD,2021-08-07 22:08:07,9.4515,18.9449,71.74,97,96,1.7,overcast clouds
83,San Patricio,US,2021-08-07 22:11:54,28.017,-97.5169,94.15,51,0,17.54,clear sky
84,Loviisa,FI,2021-08-07 22:08:08,60.4566,26.2251,60.3,96,100,8.48,moderate rain
85,Ushtobe,KZ,2021-08-07 22:08:08,45.2514,77.9838,66.87,32,0,5.41,clear sky
86,Kapaa,US,2021-08-07 22:08:08,22.0752,-159.319,86.32,65,40,1.99,scattered clouds
87,Peniche,PT,2021-08-07 22:08:09,39.3558,-9.3811,65.73,85,6,15.84,clear sky
88,Butaritari,KI,2021-08-07 22:08:38,3.0707,172.7902,82.42,67,11,14.65,few clouds
89,Yellowknife,CA,2021-08-07 22:08:09,62.456,-114.3525,67.55,55,100,16.26,overcast clouds
90,Carnarvon,AU,2021-08-07 22:11:56,-24.8667,113.6333,64.47,90,90,6.91,overcast clouds
91,Yar-Sale,RU,2021-08-07 22:08:10,66.8333,70.8333,55.76,85,17,12.03,few clouds
92,Te Anau,NZ,2021-08-07 22:07:36,-45.4167,167.7167,36.07,92,100,4.16,overcast clouds
93,Poso,ID,2021-08-07 22:08:10,-1.3959,120.7524,78.15,77,95,7.61,overcast clouds
94,Joshimath,IN,2021-08-07 22:08:11,30.5667,79.5667,70.88,88,92,0.49,overcast clouds
95,Duluth,US,2021-08-07 22:08:11,46.7833,-92.1066,66.18,94,90,1.01,overcast clouds
96,Cherskiy,RU,2021-08-07 22:11:57,68.75,161.3,59.11,42,56,4.25,broken clouds
97,Half Moon Bay,US,2021-08-07 22:11:57,37.4636,-122.4286,96.93,63,1,1.01,clear sky
98,Bouca,CF,2021-08-07 22:08:11,6.5105,18.2733,67.71,98,94,3.22,overcast clouds
99,Derzhavinsk,KZ,2021-08-07 22:11:57,51.1,66.3167,65.55,49,98,8.37,overcast clouds
100,Riviere-Au-Renard,CA,2021-08-07 22:08:12,48.9957,-64.3971,67.77,88,97,7.45,overcast clouds
101,Kodiak,US,2021-08-07 22:08:12,57.79,-152.4072,54.91,76,90,11.5,light rain
102,Albany,US,2021-08-07 22:07:16,42.6001,-73.9662,83.14,79,99,2.17,overcast clouds
103,Clacton-On-Sea,GB,2021-08-07 22:08:13,51.7897,1.156,61.79,88,74,8.01,broken clouds
104,Bama,NG,2021-08-07 22:08:13,11.5221,13.6856,74.61,82,80,7.74,broken clouds
105,Seoul,KR,2021-08-07 22:09:47,37.5683,126.9778,76.51,72,90,2.1,overcast clouds
106,Garowe,SO,2021-08-07 22:08:14,8.4054,48.4845,75.18,60,18,24.2,few clouds
107,Puerto Ayora,EC,2021-08-07 22:11:29,-0.7393,-90.3518,72.55,82,70,8.99,broken clouds
108,Okha,RU,2021-08-07 22:04:41,53.5739,142.9478,56.91,70,93,11.12,overcast clouds
109,Tuktoyaktuk,CA,2021-08-07 22:08:14,69.4541,-133.0374,41.95,76,100,13.31,overcast clouds
110,Dikson,RU,2021-08-07 22:11:59,73.5069,80.5464,49.15,74,10,9.1,clear sky
111,Chuy,UY,2021-08-07 22:12:00,-33.6971,-53.4616,62.89,83,7,6.08,clear sky
112,Ust-Nera,RU,2021-08-07 22:03:48,64.5667,143.2,67.3,49,46,1.36,scattered clouds
113,Boa Vista,BR,2021-08-07 22:12:00,2.8197,-60.6733,78.78,78,75,6.91,heavy intensity rain
114,Brae,GB,2021-08-07 22:08:15,60.3964,-1.353,57.11,92,100,19.06,overcast clouds
115,Aklavik,CA,2021-08-07 22:08:26,68.2191,-135.0107,47.57,59,98,7.94,overcast clouds
116,Hilo,US,2021-08-07 22:05:10,19.7297,-155.09,82.13,66,75,10.36,broken clouds
117,La Paz,BO,2021-08-07 22:08:16,-16.5,-68.15,53.15,36,3,3.47,clear sky
118,Adrar,MR,2021-08-07 22:12:02,20.5022,-10.0711,95.27,23,20,12.44,few clouds
119,Qaanaaq,GL,2021-08-07 22:07:50,77.484,-69.3632,41.61,76,98,1.57,overcast clouds
120,Hualmay,PE,2021-08-07 22:12:03,-11.0964,-77.6139,65.7,74,20,14.25,few clouds
121,Kharp,RU,2021-08-07 22:08:17,66.8014,65.8081,60.69,81,100,5.75,overcast clouds
122,Esfahan,IR,2021-08-07 22:03:50,32.6572,51.6776,74.84,20,56,7.58,broken clouds
123,Segou,ML,2021-08-07 22:08:17,13.4317,-6.2157,75.67,84,45,9.6,scattered clouds
124,Waingapu,ID,2021-08-07 22:05:53,-9.6567,120.2641,73.11,83,43,9.17,scattered clouds
125,Bilma,NE,2021-08-07 22:03:34,18.6853,12.9164,96.13,25,94,11.43,overcast clouds
126,Cape Town,ZA,2021-08-07 22:07:18,-33.9258,18.4232,50.41,100,90,3.44,overcast clouds
127,Ancud,CL,2021-08-07 22:12:04,-41.8697,-73.8203,47.43,77,53,7.76,broken clouds
128,Cabo San Lucas,MX,2021-08-07 22:12:04,22.8909,-109.9124,92.61,62,40,19.57,scattered clouds
129,Rock Sound,BS,2021-08-07 22:08:18,24.9,-76.2,83.5,73,7,7.83,clear sky
130,Atuona,PF,2021-08-07 22:12:05,-9.8,-139.0333,77.2,81,71,14.05,light rain
131,Castro,BR,2021-08-07 22:12:05,-24.7911,-50.0119,56.21,77,58,4.61,broken clouds
132,Chiang Mai,TH,2021-08-07 22:08:19,18.75,99.0,75.27,94,20,0.0,few clouds
133,Kununurra,AU,2021-08-07 22:09:06,-15.7667,128.7333,49.98,71,13,1.14,few clouds
134,Mount Gambier,AU,2021-08-07 22:02:46,-37.8333,140.7667,33.71,100,75,0.0,broken clouds
135,Severo-Kurilsk,RU,2021-08-07 22:12:06,50.6789,156.125,55.24,72,81,8.3,broken clouds
136,Grand Island,US,2021-08-07 22:06:06,40.925,-98.342,89.2,65,90,4.0,overcast clouds
137,Coihaique,CL,2021-08-07 22:12:06,-45.5752,-72.0662,42.75,61,75,3.44,broken clouds
138,Muros,ES,2021-08-07 22:08:20,42.7762,-9.0603,63.23,90,1,5.17,clear sky
139,Bambous Virieux,MU,2021-08-07 22:08:21,-20.3428,57.7575,68.25,88,75,3.44,broken clouds
140,Zeya,RU,2021-08-07 22:08:21,53.75,127.2667,57.36,88,100,4.12,overcast clouds
141,Lembang,ID,2021-08-07 22:07:17,-6.8117,107.6175,61.81,93,11,3.02,few clouds
142,Komsomolskiy,UZ,2021-08-07 22:12:07,40.4272,71.7189,79.52,31,82,4.61,broken clouds
143,Morro Bay,US,2021-08-07 22:08:21,35.3658,-120.8499,97.93,60,24,11.99,few clouds
144,Mount Isa,AU,2021-08-07 22:08:22,-20.7333,139.5,53.37,40,0,1.14,clear sky
145,Opuwo,NA,2021-08-07 22:12:08,-18.0607,13.84,66.25,21,0,5.03,clear sky
146,Quatre Cocos,MU,2021-08-07 22:08:22,-20.2078,57.7625,68.11,81,54,11.43,broken clouds
147,Bredasdorp,ZA,2021-08-07 22:08:23,-34.5322,20.0403,49.28,88,99,0.96,overcast clouds
148,Saldanha,ZA,2021-08-07 22:08:23,-33.0117,17.9442,56.61,74,100,6.76,overcast clouds
149,Broome,US,2021-08-07 22:08:24,42.2506,-75.833,84.09,79,75,5.01,light rain
150,Klaksvik,FO,2021-08-07 22:08:25,62.2266,-6.589,59.92,89,95,18.39,overcast clouds
151,Cibitoke,BI,2021-08-07 22:08:25,-2.8833,29.25,66.47,64,69,3.38,broken clouds
152,Safaga,EG,2021-08-07 22:08:25,26.7292,33.9365,92.52,34,0,5.59,clear sky
153,Flin Flon,CA,2021-08-07 22:08:26,54.7682,-101.865,72.99,65,100,8.16,overcast clouds
154,East London,ZA,2021-08-07 22:12:10,-33.0153,27.9116,59.5,79,54,11.3,broken clouds
155,Ixtapa,MX,2021-08-07 22:00:42,20.7,-105.2,80.33,89,99,4.09,overcast clouds
156,Zhigansk,RU,2021-08-07 22:12:10,66.7697,123.3711,66.16,39,94,20.71,overcast clouds
157,Zarate,AR,2021-08-07 22:05:56,-34.0981,-59.0286,72.03,61,4,5.01,clear sky
158,Burgersdorp,ZA,2021-08-07 22:08:27,-30.9977,26.3286,45.75,25,14,3.71,few clouds
159,Saint-Augustin,CA,2021-08-07 22:12:11,51.226,-58.6502,65.73,92,100,1.68,overcast clouds
160,Launceston,AU,2021-08-07 22:08:27,-41.45,147.1667,36.81,90,90,4.61,overcast clouds
161,Ribeira Grande,PT,2021-08-07 22:08:27,38.5167,-28.7,69.6,68,19,12.5,few clouds
162,Geraldton,AU,2021-08-07 22:08:28,-28.7667,114.6,61.21,94,90,6.91,overcast clouds
163,Clyde River,CA,2021-08-07 22:12:12,70.4692,-68.5914,39.72,84,94,3.51,overcast clouds
164,Byron Bay,AU,2021-08-07 22:08:28,-28.65,153.6167,62.55,75,14,13.22,few clouds
165,Vila Franca Do Campo,PT,2021-08-07 22:02:36,37.7167,-25.4333,70.21,76,11,6.73,few clouds
166,Malakal,SS,2021-08-07 22:12:12,9.5334,31.6605,72.55,96,100,3.69,overcast clouds
167,Yulara,AU,2021-08-07 22:12:13,-25.2406,130.9889,37.24,65,0,5.75,clear sky
168,Esperance,AU,2021-08-07 22:12:13,-33.8667,121.9,53.44,70,100,1.48,light rain
169,Nikolskoye,RU,2021-08-07 22:08:29,59.7035,30.7861,65.01,98,98,6.17,overcast clouds
170,Tasiilaq,GL,2021-08-07 22:08:29,65.6145,-37.6368,44.76,93,100,8.1,overcast clouds
171,Sheboygan,US,2021-08-07 22:08:30,43.7333,-87.9334,76.98,91,75,4.61,moderate rain
172,Vidim,RU,2021-08-07 22:08:30,56.4088,103.1106,49.46,66,18,0.78,few clouds
173,Westport,US,2021-08-07 22:12:14,41.1415,-73.3579,84.02,58,1,1.01,clear sky
174,Barra Do Corda,BR,2021-08-07 22:08:31,-5.5,-45.25,83.86,37,6,4.41,clear sky
175,Voh,NC,2021-08-07 22:08:31,-20.9667,164.7,70.52,62,100,2.8,overcast clouds
176,Banda Aceh,ID,2021-08-07 22:02:52,5.5577,95.3222,79.25,84,89,6.93,overcast clouds
177,Kemijarvi,FI,2021-08-07 22:08:31,66.7131,27.4306,53.33,74,6,6.42,clear sky
178,Fortuna,US,2021-08-07 22:11:52,40.5982,-124.1573,74.86,73,1,3.0,clear sky
179,Kulykiv,UA,2021-08-07 22:08:32,50.3142,24.8176,60.67,83,3,6.76,clear sky
180,Tiksi,RU,2021-08-07 22:08:32,71.6872,128.8694,48.38,75,39,4.5,scattered clouds
181,Kijang,KR,2021-08-07 22:08:33,35.2442,129.2139,75.92,91,94,4.5,overcast clouds
182,Elizabeth City,US,2021-08-07 22:06:24,36.2946,-76.2511,75.25,95,1,3.0,light rain
183,Saint-Francois,FR,2021-08-07 22:08:33,46.4154,3.9054,62.04,72,0,5.75,clear sky
184,Monte Patria,CL,2021-08-07 22:08:33,-30.6919,-70.9467,57.25,66,1,5.37,clear sky
185,Saint-Paul,RE,2021-08-07 22:08:34,-21.0096,55.2707,69.89,67,7,4.65,clear sky
186,Pochutla,MX,2021-08-07 22:03:26,15.7432,-96.4661,85.05,72,100,5.68,overcast clouds
187,Sosva,RU,2021-08-07 22:08:34,59.1766,61.8558,53.26,97,100,9.19,overcast clouds
188,Cabras,IT,2021-08-07 22:08:35,39.93,8.5314,74.07,88,34,2.68,scattered clouds
189,Vila,PT,2021-08-07 22:12:17,42.0304,-8.1588,52.32,83,11,1.88,few clouds
190,Longyearbyen,SJ,2021-08-07 22:12:17,78.2186,15.6401,43.36,97,98,7.27,overcast clouds
191,Carson City,US,2021-08-07 22:03:38,39.1638,-119.7674,97.21,12,1,1.99,haze
192,Kavieng,PG,2021-08-07 22:12:18,-2.5744,150.7967,81.95,77,91,14.58,moderate rain
193,Svay Rieng,KH,2021-08-07 22:08:37,11.0879,105.7993,79.03,82,100,5.14,overcast clouds
194,Sabang,ID,2021-08-07 22:04:02,5.8933,95.3214,82.31,79,93,12.15,overcast clouds
195,Cervo,ES,2021-08-07 22:08:38,43.6702,-7.4101,59.97,83,5,8.55,clear sky
196,Pevek,RU,2021-08-07 22:12:20,69.7008,170.3133,42.13,73,30,6.31,scattered clouds
197,Siguiri,GN,2021-08-07 22:08:39,11.6667,-9.5,71.2,96,84,3.11,light rain
198,Oksfjord,NO,2021-08-07 22:08:39,70.2396,22.3479,59.92,65,78,7.61,broken clouds
199,Iranshahr,IR,2021-08-07 22:05:32,27.2025,60.6848,94.8,25,4,2.59,clear sky
200,Pangody,RU,2021-08-07 22:08:40,65.85,74.4859,62.71,60,1,6.64,clear sky
201,Nanortalik,GL,2021-08-07 22:08:41,60.1432,-45.2371,46.54,93,100,17.81,moderate rain
202,Kruisfontein,ZA,2021-08-07 22:08:41,-34.0033,24.7314,55.4,53,100,4.74,overcast clouds
203,San Cristobal,VE,2021-08-07 22:12:23,7.7669,-72.225,82.58,69,78,4.41,broken clouds
204,Sumbe,AO,2021-08-07 22:08:42,-11.2061,13.8437,70.61,87,25,7.43,scattered clouds
205,Thompson,CA,2021-08-07 22:08:42,55.7435,-97.8558,86.81,30,68,14.29,broken clouds
206,Dingle,PH,2021-08-07 22:12:24,10.9995,122.6711,77.25,91,93,3.36,light rain
207,Henties Bay,NA,2021-08-07 22:10:14,-22.116,14.2845,53.85,79,3,3.33,clear sky
208,Namibe,AO,2021-08-07 22:12:25,-15.1961,12.1522,69.85,80,92,2.19,overcast clouds
209,Souillac,MU,2021-08-07 22:12:26,-20.5167,57.5167,68.38,88,75,3.44,broken clouds
210,Akonolinga,CM,2021-08-07 22:08:43,3.7667,12.25,67.62,98,92,4.61,overcast clouds
211,Namie,JP,2021-08-07 22:08:43,37.4833,141.0,77.99,98,100,5.97,light rain
212,Athabasca,CA,2021-08-07 21:59:36,54.7169,-113.2854,68.83,53,97,10.02,overcast clouds
213,Pokhara,NP,2021-08-07 22:12:26,28.2333,83.9833,72.18,87,70,3.02,moderate rain
214,Pangnirtung,CA,2021-08-07 22:12:27,66.1451,-65.7125,42.87,81,98,3.83,overcast clouds
215,Boca Do Acre,BR,2021-08-07 22:08:46,-8.7522,-67.3978,89.31,33,9,1.48,clear sky
216,Iqaluit,CA,2021-08-07 22:12:27,63.7506,-68.5145,40.91,90,100,3.2,light rain
217,Puerto Baquerizo Moreno,EC,2021-08-07 22:08:46,-0.9,-89.6,70.02,75,88,14.41,overcast clouds
218,Arraial Do Cabo,BR,2021-08-07 22:08:36,-22.9661,-42.0278,69.66,68,0,10.36,clear sky
219,San Jose,US,2021-08-07 22:04:00,37.3394,-121.895,95.88,44,75,9.22,smoke
220,Hobyo,SO,2021-08-07 22:04:30,5.3505,48.5268,76.17,83,99,25.39,overcast clouds
221,Luderitz,NA,2021-08-07 22:08:47,-26.6481,15.1594,58.23,60,24,2.28,few clouds
222,Ginir,ET,2021-08-07 22:08:48,7.1333,40.7,62.51,61,80,8.19,broken clouds
223,Puerto Palomas,MX,2021-08-07 22:08:48,31.7667,-107.6167,87.13,17,5,3.78,clear sky
224,Katsuura,JP,2021-08-07 22:09:13,35.1333,140.3,78.91,97,100,26.89,very heavy rain
225,Laguna,US,2021-08-07 22:08:35,38.421,-121.4238,101.21,30,1,5.75,haze
226,Manggar,ID,2021-08-07 22:08:49,-2.8833,108.2667,82.24,78,100,9.04,overcast clouds
227,Tilichiki,RU,2021-08-07 22:08:49,60.4667,166.1,51.78,66,86,8.12,overcast clouds
228,Kaitangata,NZ,2021-08-07 22:08:49,-46.2817,169.8464,41.14,71,100,3.78,overcast clouds
229,Kahului,US,2021-08-07 22:12:30,20.8947,-156.47,86.02,60,20,24.16,few clouds
230,Port Lincoln,AU,2021-08-07 22:12:31,-34.7333,135.8667,50.56,77,0,10.0,clear sky
231,Guiong,PH,2021-08-07 22:08:51,6.4186,122.0258,77.7,86,100,9.69,moderate rain
232,Jasper,US,2021-08-07 22:08:01,37.2001,-94.3502,92.82,54,0,4.0,clear sky
233,Praxedis Guerrero,MX,2021-08-07 22:08:52,31.3667,-106.0167,100.56,15,62,3.0,broken clouds
234,Bontang,ID,2021-08-07 22:08:53,0.1333,117.5,78.08,88,100,3.4,light rain
235,Hambantota,LK,2021-08-07 22:08:53,6.1241,81.1185,79.14,94,20,9.22,few clouds
236,Harper,LR,2021-08-07 22:07:57,4.375,-7.7169,76.75,80,86,10.02,overcast clouds
237,Lysyanka,UA,2021-08-07 22:08:54,49.2523,30.8295,58.86,83,0,7.2,clear sky
238,Alofi,NU,2021-08-07 22:08:54,-19.0595,-169.9187,73.9,70,27,13.22,scattered clouds
239,Bournemouth,GB,2021-08-07 22:04:17,50.7205,-1.8795,60.82,85,0,1.99,clear sky
240,San Rafael,AR,2021-08-07 22:03:15,-34.6177,-68.3301,56.14,36,1,12.28,clear sky
241,Bengkulu,ID,2021-08-07 22:08:55,-3.8004,102.2655,75.69,90,10,3.78,clear sky
242,Ayna,PE,2021-08-07 22:08:55,-12.65,-73.9167,67.75,54,14,3.6,few clouds
243,Fairbanks,US,2021-08-07 22:10:05,64.8378,-147.7164,59.09,90,75,4.61,light rain
244,Zhangye,CN,2021-08-07 22:08:55,38.9342,100.4517,66.29,46,50,5.79,scattered clouds
245,Burgeo,CA,2021-08-07 22:08:56,47.6167,-57.6152,63.81,93,73,5.37,broken clouds
246,Fukue,JP,2021-08-07 22:05:08,32.6881,128.8419,80.4,87,100,12.33,overcast clouds
247,Hofn,IS,2021-08-07 22:12:33,64.2539,-15.2082,56.88,81,100,10.51,overcast clouds
248,Molteno,ZA,2021-08-07 22:08:57,-31.3968,26.3625,46.87,23,44,7.16,scattered clouds
249,Boyolangu,ID,2021-08-07 22:12:34,-8.1181,111.8935,73.6,96,63,0.92,broken clouds
250,Ulagan,RU,2021-08-07 22:08:57,50.6321,87.9563,47.07,91,49,1.99,scattered clouds
251,Ahipara,NZ,2021-08-07 22:08:57,-35.1667,173.1667,57.2,83,99,13.09,overcast clouds
252,Knysna,ZA,2021-08-07 22:08:58,-34.0363,23.0471,59.38,51,100,3.65,overcast clouds
253,Colares,PT,2021-08-07 22:08:58,38.7992,-9.4469,65.89,71,1,16.17,clear sky
254,Kumba,CM,2021-08-07 22:08:59,4.6363,9.4469,70.84,93,97,3.36,overcast clouds
255,Sinjar,IQ,2021-08-07 22:08:59,36.3209,41.8754,89.1,23,0,5.55,clear sky
256,Talcahuano,CL,2021-08-07 22:08:59,-36.7167,-73.1167,55.08,47,75,3.44,broken clouds
257,Kushima,JP,2021-08-07 22:09:00,31.4583,131.2333,77.04,92,97,2.19,overcast clouds
258,Mormugao,IN,2021-08-07 22:09:00,15.4,73.8,76.26,100,75,4.61,broken clouds
259,Cockburn Town,TC,2021-08-07 22:12:36,21.4612,-71.1419,85.96,66,40,11.5,scattered clouds
260,Praia,CV,2021-08-07 22:02:57,14.9215,-23.5087,79.34,89,75,5.75,broken clouds
261,Bloemfontein,ZA,2021-08-07 22:09:01,-29.1211,26.214,46.33,29,1,5.21,clear sky
262,San Quintin,MX,2021-08-07 22:12:37,30.4833,-115.95,73.6,66,5,10.67,clear sky
263,Yumaguzino,RU,2021-08-07 22:09:01,52.9041,56.3933,56.26,64,28,3.2,scattered clouds
264,Raahe,FI,2021-08-07 22:09:02,64.6833,24.4833,60.89,64,0,17.13,clear sky
265,Qui Nhon,VN,2021-08-07 22:09:03,13.7667,109.2333,82.2,75,100,4.47,overcast clouds
266,Jiayuguan,CN,2021-08-07 22:03:07,39.8167,98.3,66.9,37,41,5.99,scattered clouds
267,Vestmannaeyjar,IS,2021-08-07 22:12:37,63.4427,-20.2734,54.93,91,100,7.31,overcast clouds
268,Lata,PT,2021-08-07 22:12:38,40.1629,-8.3327,62.06,97,22,3.56,few clouds
269,Nueve De Julio,AR,2021-08-07 22:09:04,-35.4444,-60.8831,65.66,57,26,5.88,scattered clouds
270,Puerto Madero,MX,2021-08-07 22:09:04,14.7208,-92.4215,88.0,66,75,6.91,broken clouds
271,Kardamas,GR,2021-08-07 22:09:04,37.7667,21.3333,77.41,73,0,0.0,clear sky
272,Kouango,CF,2021-08-07 22:09:05,4.9934,19.9619,70.52,96,100,2.26,overcast clouds
273,Mayumba,GA,2021-08-07 22:12:39,-3.432,10.6554,72.16,88,94,4.61,overcast clouds
274,Comodoro Rivadavia,AR,2021-08-07 22:08:42,-45.8667,-67.5,51.66,25,0,20.71,clear sky
275,Borodyanka,UA,2021-08-07 22:09:05,50.6448,29.9201,64.54,88,0,0.0,clear sky
276,Challapata,BO,2021-08-07 22:09:06,-18.9,-66.7667,50.72,23,16,2.15,few clouds
277,Noumea,NC,2021-08-07 22:09:07,-22.2763,166.4572,62.58,61,97,3.15,overcast clouds
278,Lichuan,CN,2021-08-07 22:12:41,30.3,108.85,67.51,99,100,2.68,moderate rain
279,Porto Santo,PT,2021-08-07 22:09:07,33.072,-16.3415,73.31,78,75,6.91,broken clouds
280,Suwannaphum,TH,2021-08-07 22:09:07,15.6035,103.8021,79.63,81,90,9.53,overcast clouds
281,Bathsheba,BB,2021-08-07 22:04:33,13.2167,-59.5167,83.01,69,40,12.66,scattered clouds
282,Wildberg,DE,2021-08-07 22:09:08,48.6234,8.7452,60.12,93,65,8.39,broken clouds
283,Bingol,TR,2021-08-07 22:09:08,38.8847,40.4939,69.8,43,34,5.66,scattered clouds
284,San Vicente,AR,2021-08-07 22:09:08,-26.6167,-54.1333,65.25,54,0,3.24,clear sky
285,Lamu,KE,2021-08-07 22:09:09,-2.2717,40.902,73.62,83,36,14.88,scattered clouds
286,Lagoa,PT,2021-08-07 22:09:09,39.05,-27.9833,68.59,67,29,10.98,scattered clouds
287,Shellbrook,CA,2021-08-07 22:03:43,53.2168,-106.4011,80.44,26,97,4.14,overcast clouds
288,Kangaatsiaq,GL,2021-08-07 22:09:10,68.3065,-53.4641,40.98,93,100,10.98,light rain
289,Auki,SB,2021-08-07 22:05:43,-8.7676,160.7034,81.59,71,92,2.48,overcast clouds
290,Zomin,UZ,2021-08-07 22:09:10,39.9606,68.3958,80.58,26,6,6.17,clear sky
291,Azuaga,ES,2021-08-07 22:09:11,38.2667,-5.6833,69.96,40,0,9.26,clear sky
292,Lavrentiya,RU,2021-08-07 22:12:44,65.5833,-171.0,46.65,74,100,19.3,overcast clouds
293,Emba,KZ,2021-08-07 22:09:11,48.8264,58.1442,72.19,25,5,7.36,clear sky
294,Bull Savanna,JM,2021-08-07 22:09:12,17.8868,-77.5902,82.35,70,30,9.66,scattered clouds
295,Coahuayana,MX,2021-08-07 22:09:12,18.7333,-103.6833,87.28,80,90,6.2,overcast clouds
296,Nizhniy Baskunchak,RU,2021-08-07 22:09:14,48.2198,46.8311,82.45,20,4,15.14,clear sky
297,Kloulklubed,PW,2021-08-07 22:09:14,7.0419,134.2556,79.3,80,100,3.18,light rain
298,Camacha,PT,2021-08-07 22:12:45,33.0833,-16.3333,70.54,78,75,6.91,broken clouds
299,Tongchuan,CN,2021-08-07 22:09:15,35.0806,109.0897,70.5,53,98,4.63,overcast clouds
300,Eregli,TR,2021-08-07 22:09:15,37.5133,34.0467,63.37,76,80,3.58,broken clouds
301,Saskylakh,RU,2021-08-07 22:09:16,71.9167,114.0833,51.89,74,100,6.42,overcast clouds
302,Oktyabrskoye,RU,2021-08-07 22:03:15,43.0645,44.7417,73.54,88,90,4.47,overcast clouds
303,Mehamn,NO,2021-08-07 22:09:16,71.0357,27.8492,60.62,64,79,9.42,broken clouds
304,Omsukchan,RU,2021-08-07 22:09:17,62.5333,155.8,50.22,84,100,6.85,overcast clouds
305,Greenfield,US,2021-08-07 22:01:12,42.9614,-88.0126,78.12,87,1,3.0,haze
306,Ketchikan,US,2021-08-07 22:09:17,55.3422,-131.6461,64.87,68,40,13.8,scattered clouds
307,Buenavista,PH,2021-08-07 22:09:18,8.9769,125.4089,76.33,87,100,4.18,heavy intensity rain
308,Nhulunbuy,AU,2021-08-07 22:05:16,-12.2333,136.7667,74.01,60,7,8.05,clear sky
309,Husavik,IS,2021-08-07 22:12:47,66.0449,-17.3389,58.3,75,91,2.1,overcast clouds
310,Sibolga,ID,2021-08-07 22:12:48,1.7427,98.7792,76.33,89,98,3.04,overcast clouds
311,Chardara,KZ,2021-08-07 22:09:19,41.2547,67.9692,80.67,30,0,9.82,clear sky
312,Manta,EC,2021-08-07 22:09:19,-0.95,-80.7333,73.98,76,52,13.67,broken clouds
313,Jinchang,CN,2021-08-07 22:09:19,38.4953,102.1739,67.05,51,93,7.56,overcast clouds
314,Inhambane,MZ,2021-08-07 22:09:19,-23.865,35.3833,66.27,87,0,4.83,clear sky
315,Santa Cruz,BO,2021-08-07 21:59:48,-17.8,-63.1667,87.26,37,26,23.02,scattered clouds
316,Acari,PE,2021-08-07 22:09:20,-15.4311,-74.6158,66.54,70,18,7.49,few clouds
317,Necochea,AR,2021-08-07 22:05:20,-38.5473,-58.7368,49.03,72,40,10.56,scattered clouds
318,Krasnoselkup,RU,2021-08-07 22:09:20,65.7,82.4667,61.27,69,95,5.17,overcast clouds
319,Caucaia,BR,2021-08-07 22:05:15,-3.7361,-38.6531,81.03,73,0,18.41,clear sky
320,Ternate,ID,2021-08-07 22:05:56,0.8,127.4,76.5,91,100,4.0,light rain
321,Tamboril,DO,2021-08-07 22:09:21,19.4854,-70.611,86.7,100,40,6.91,scattered clouds
322,San Andres,CO,2021-08-07 22:08:21,12.5847,-81.7006,81.5,80,93,15.35,overcast clouds
323,Tete,MZ,2021-08-07 22:09:21,-16.1564,33.5867,75.29,50,0,10.36,clear sky
324,Gorontalo,ID,2021-08-07 22:09:22,0.5412,123.0595,75.09,90,99,2.24,overcast clouds
325,West Helena,US,2021-08-07 22:09:22,34.5507,-90.6418,91.08,52,44,4.72,scattered clouds
326,Mookane,BW,2021-08-07 22:09:23,-23.688,26.6595,63.75,20,1,5.59,clear sky
327,Khor,RU,2021-08-07 22:09:23,47.8861,134.9464,56.7,99,100,7.4,overcast clouds
328,Hovd,MN,2021-08-07 22:12:51,48.0056,91.6419,55.26,71,3,1.9,clear sky
329,Korla,CN,2021-08-07 22:07:54,41.7597,86.1469,76.1,38,2,3.53,clear sky
330,Acapulco,MX,2021-08-07 22:08:50,16.8634,-99.8901,85.82,74,75,10.36,broken clouds
331,Srivardhan,IN,2021-08-07 22:09:24,18.0333,73.0167,79.23,85,32,4.27,scattered clouds
332,Praia Da Vitoria,PT,2021-08-07 22:12:52,38.7333,-27.0667,69.76,73,27,10.8,scattered clouds
333,Vostok,RU,2021-08-07 22:09:47,46.4856,135.8833,57.07,99,100,5.61,overcast clouds
334,Baneh,IR,2021-08-07 22:09:24,35.9975,45.8853,73.76,26,48,4.41,scattered clouds
335,Kirensk,RU,2021-08-07 22:09:25,57.7853,108.1119,50.63,93,61,1.66,broken clouds
336,Puerto Escondido,MX,2021-08-07 22:08:12,15.85,-97.0667,86.83,66,90,10.36,overcast clouds
337,Sfantu Gheorghe,RO,2021-08-07 22:07:35,45.8667,25.7833,64.27,76,1,2.04,clear sky
338,Sulangan,PH,2021-08-07 22:03:04,11.1373,123.7228,83.64,74,86,3.62,overcast clouds
339,Teya,RU,2021-08-07 22:12:54,60.3778,92.6267,57.33,74,77,2.3,broken clouds
340,Wahpeton,US,2021-08-07 22:09:26,46.2652,-96.6059,81.32,27,95,7.65,overcast clouds
341,Salina Cruz,MX,2021-08-07 22:09:26,16.1667,-95.2,88.09,62,66,8.14,broken clouds
342,Ardahan,TR,2021-08-07 22:09:26,41.1087,42.7022,54.57,89,78,3.24,broken clouds
343,Zhob,PK,2021-08-07 22:09:27,31.3411,69.4481,80.49,46,31,0.49,scattered clouds
344,Vardo,NO,2021-08-07 22:09:27,70.3705,31.1107,56.57,72,53,8.68,broken clouds
345,Ust-Omchug,RU,2021-08-07 22:03:57,61.15,149.6333,56.3,67,30,3.53,scattered clouds
346,Leh,IN,2021-08-07 22:09:29,34.1667,77.5833,62.06,47,15,5.26,few clouds
347,Sitka,US,2021-08-07 22:06:23,57.0531,-135.33,62.49,82,90,10.36,light rain
348,Paamiut,GL,2021-08-07 22:12:55,61.994,-49.6678,40.95,94,100,14.74,light rain
349,Krasnyy Oktyabr,RU,2021-08-07 22:09:29,56.1167,38.8833,71.29,73,100,5.99,light rain
350,Igarka,RU,2021-08-07 22:09:30,67.4667,86.5833,57.42,68,86,5.79,overcast clouds
351,Broken Hill,AU,2021-08-07 22:05:20,-31.95,141.4333,45.5,72,0,7.05,clear sky
352,Manzhouli,CN,2021-08-07 22:09:30,49.6,117.4333,63.14,78,61,2.06,broken clouds
353,Prince Rupert,CA,2021-08-07 22:12:57,54.3161,-130.3201,61.47,76,100,6.76,overcast clouds
354,Tianpeng,CN,2021-08-07 22:09:31,30.9866,103.9393,73.42,91,100,4.59,overcast clouds
355,Bambanglipuro,ID,2021-08-07 22:09:31,-7.95,110.2833,75.06,88,41,2.15,scattered clouds
356,Marawi,PH,2021-08-07 22:12:57,7.9986,124.2928,68.65,90,100,4.03,heavy intensity rain
357,Beisfjord,NO,2021-08-07 22:09:32,68.3751,17.5988,63.05,57,99,6.73,overcast clouds
358,Mbandaka,CD,2021-08-07 22:09:32,0.0487,18.2603,68.31,95,98,2.51,light rain
359,Chalus,IR,2021-08-07 22:09:32,36.655,51.4204,76.46,88,0,0.0,clear sky
360,Svelgen,NO,2021-08-07 22:09:33,61.7685,5.2955,65.19,64,99,3.91,overcast clouds
361,Monte Carmelo,BR,2021-08-07 22:09:33,-18.7247,-47.4986,63.0,58,60,3.96,broken clouds
362,Rudbar,AF,2021-08-07 22:09:34,30.15,62.6,85.53,18,0,9.8,clear sky
363,Alexandria,EG,2021-08-07 22:09:34,31.2156,29.9553,82.15,70,0,13.85,clear sky
364,Miandrivazo,MG,2021-08-07 22:09:35,-19.5167,45.4667,67.44,55,0,3.74,clear sky
365,Wuwei,CN,2021-08-07 22:09:35,37.9281,102.6414,66.29,53,99,4.21,overcast clouds
366,Kudahuvadhoo,MV,2021-08-07 22:05:20,2.6708,72.8944,82.35,76,100,11.59,overcast clouds
367,Ponta Do Sol,PT,2021-08-07 22:09:35,32.6667,-17.1,74.71,86,80,6.49,broken clouds
368,Montecristo,CO,2021-08-07 22:09:36,8.2971,-74.4733,83.44,86,51,1.59,broken clouds
369,Devonport,AU,2021-08-07 22:09:15,-41.1667,146.35,43.99,67,99,5.46,overcast clouds
370,Shenjiamen,CN,2021-08-07 22:04:23,29.9576,122.298,79.66,85,3,16.93,clear sky
371,Sonqor,IR,2021-08-07 22:09:36,34.7837,47.6004,73.26,37,91,3.44,overcast clouds
372,Boueni,YT,2021-08-07 22:09:37,-12.9025,45.0761,67.98,61,0,5.57,clear sky
373,Luis Correia,BR,2021-08-07 22:09:37,-2.8792,-41.6669,79.9,75,38,10.02,scattered clouds
374,Farah,AF,2021-08-07 22:09:14,32.5,62.5,82.13,15,0,4.25,clear sky
375,Analipsis,GR,2021-08-07 22:09:39,35.3167,25.5667,80.94,70,0,12.08,clear sky
376,Nsanje,MW,2021-08-07 22:09:39,-16.92,35.262,66.88,67,0,3.13,clear sky
377,Tual,ID,2021-08-07 22:07:16,-5.6667,132.75,80.58,78,82,21.74,broken clouds
378,Bereda,ES,2021-08-07 22:05:14,43.2686,-7.5406,56.95,96,7,1.5,clear sky
379,Kontagora,NG,2021-08-07 22:03:33,10.3999,5.4695,71.91,97,82,4.34,broken clouds
380,Toamasina,MG,2021-08-07 22:09:40,-18.1667,49.3833,64.96,91,12,4.9,few clouds
381,Stettler,CA,2021-08-07 22:09:40,52.3168,-112.7186,83.75,17,54,6.13,moderate rain
382,Faya,SA,2021-08-07 22:09:41,18.3851,42.4509,63.12,54,44,4.59,scattered clouds
383,Oriximina,BR,2021-08-07 22:09:41,-1.7656,-55.8661,82.08,48,23,3.0,few clouds
384,Ponta Delgada,PT,2021-08-07 22:09:41,37.7333,-25.6667,70.52,64,75,9.22,broken clouds
385,Hirara,JP,2021-08-07 22:13:03,24.8,125.2833,82.67,89,75,20.71,light intensity shower rain
386,Avera,US,2021-08-07 22:09:42,33.194,-82.5271,89.74,49,78,0.51,broken clouds
387,Santa Lucia,ES,2021-08-07 22:08:13,27.9117,-15.5407,65.52,78,20,20.71,few clouds
388,Port Hedland,AU,2021-08-07 22:09:42,-20.3167,118.5667,62.65,27,17,6.91,few clouds
389,Itarema,BR,2021-08-07 22:09:43,-2.9248,-39.9167,80.2,74,94,17.58,overcast clouds
390,Majene,ID,2021-08-07 22:13:04,-3.5403,118.9707,76.69,89,99,11.27,overcast clouds
391,Beloha,MG,2021-08-07 22:03:08,-25.1667,45.05,62.22,87,0,4.36,clear sky
392,Florianopolis,BR,2021-08-07 22:05:26,-27.6146,-48.5012,63.63,82,20,9.22,few clouds
393,Hanna,CA,2021-08-07 22:09:43,51.6334,-111.9018,78.87,35,80,5.01,broken clouds
394,Almenara,BR,2021-08-07 22:09:44,-16.1836,-40.6944,69.55,57,96,6.51,overcast clouds
395,Yeppoon,AU,2021-08-07 22:09:44,-23.1333,150.7333,55.18,78,1,5.88,clear sky
396,Sisimiut,GL,2021-08-07 22:09:45,66.9395,-53.6735,41.11,95,100,5.55,light rain
397,Micheweni,TZ,2021-08-07 22:09:45,-4.9667,39.8333,73.62,82,15,10.33,few clouds
398,Stolin,BY,2021-08-07 22:09:46,51.8912,26.846,57.94,81,13,5.79,few clouds
399,Kisangani,CD,2021-08-07 22:05:46,0.5167,25.2,69.66,93,82,2.3,broken clouds
400,Likasi,CD,2021-08-07 22:09:46,-10.9814,26.7333,62.31,36,5,4.29,clear sky
401,Taltal,CL,2021-08-07 22:09:48,-25.4,-70.4833,55.67,79,34,5.32,scattered clouds
402,Scarborough,GB,2021-08-07 22:09:48,54.2797,-0.4044,59.85,90,98,3.0,overcast clouds
403,Nelson Bay,AU,2021-08-07 22:03:22,-32.7167,152.15,55.99,79,98,1.01,overcast clouds
404,Belmonte,BR,2021-08-07 22:13:08,-15.8631,-38.8828,72.1,75,54,9.82,broken clouds
405,Kovur,IN,2021-08-07 22:09:48,14.4833,79.9833,86.38,63,97,7.36,overcast clouds
406,Blythe,US,2021-08-07 22:09:49,33.6103,-114.5964,110.03,14,0,14.0,clear sky
407,Namatanai,PG,2021-08-07 22:13:09,-3.6667,152.4333,79.95,79,55,6.26,moderate rain
408,Ambovombe,MG,2021-08-07 22:09:50,-25.1667,46.0833,64.31,88,0,3.62,clear sky
409,Brodokalmak,RU,2021-08-07 22:09:50,55.5748,62.082,52.7,70,19,11.39,few clouds
410,Qaqortoq,GL,2021-08-07 22:09:51,60.7167,-46.0333,48.7,95,100,5.91,moderate rain
411,Altamira,BR,2021-08-07 22:09:51,-3.2033,-52.2064,81.59,46,15,2.42,few clouds
412,Bloomfield,US,2021-08-07 22:07:49,40.8068,-74.1854,86.32,61,1,1.99,clear sky
413,Sidi Ali,DZ,2021-08-07 22:03:39,36.0998,0.4206,76.03,53,0,5.26,clear sky
414,Morant Bay,JM,2021-08-07 22:03:58,17.8815,-76.4093,84.65,70,1,9.91,clear sky
415,Sikandra Rao,IN,2021-08-07 22:09:52,27.7,78.4,83.53,78,100,3.62,overcast clouds
416,Adre,TD,2021-08-07 22:09:52,13.4667,22.2,73.09,79,90,6.15,overcast clouds
417,Nago,JP,2021-08-07 22:09:53,26.5881,127.9761,81.03,97,100,27.42,heavy intensity rain
418,Cam Ranh,VN,2021-08-07 22:09:53,11.9214,109.1591,82.36,78,20,3.44,few clouds
419,Sabha,LY,2021-08-07 22:09:53,27.0377,14.4283,90.81,9,0,0.87,clear sky
420,High Rock,BS,2021-08-07 22:09:54,26.6208,-78.2833,86.02,68,3,7.05,clear sky
421,Baglung,NP,2021-08-07 22:09:54,28.2719,83.5898,71.08,90,83,2.42,light rain
422,Lulea,SE,2021-08-07 22:09:55,65.5842,22.1547,64.47,63,49,9.22,scattered clouds
423,Mujiayingzi,CN,2021-08-07 22:09:55,42.1167,118.7833,67.32,64,14,4.34,few clouds
424,Quchan,IR,2021-08-07 22:09:56,37.106,58.5095,72.16,26,2,3.06,clear sky
425,Hamilton,US,2021-08-07 22:08:16,39.1834,-84.5333,89.37,53,1,3.0,clear sky
426,Vuktyl,RU,2021-08-07 22:09:56,63.8567,57.3094,49.87,98,100,8.88,overcast clouds
427,Wadi Maliz,TN,2021-08-07 22:09:57,36.4681,8.5495,83.88,44,25,5.21,scattered clouds
428,Maldonado,UY,2021-08-07 22:07:14,-34.6667,-54.9167,65.23,87,7,4.79,clear sky
429,Faranah,GN,2021-08-07 22:09:57,10.0404,-10.7434,71.1,90,85,5.14,overcast clouds
430,Salvador,SV,2021-08-07 22:09:58,13.8333,-88.9167,86.05,63,51,3.58,broken clouds
431,Talnakh,RU,2021-08-07 22:09:58,69.4865,88.3972,55.42,61,31,2.28,scattered clouds
432,Inongo,CD,2021-08-07 22:09:58,-1.95,18.2667,69.49,84,99,8.63,overcast clouds
433,Ust-Maya,RU,2021-08-07 22:09:59,60.4167,134.5333,58.01,49,2,8.7,clear sky
434,Cayenne,GF,2021-08-07 22:09:59,4.9333,-52.3333,83.08,83,0,0.0,clear sky
435,Gat,IL,2021-08-07 22:13:15,31.61,34.7642,81.39,80,3,6.89,clear sky
436,Halifax,CA,2021-08-07 22:06:40,44.6453,-63.5724,74.41,81,99,4.0,overcast clouds
437,Bolshaya Sosnova,RU,2021-08-07 22:10:00,57.6713,54.6029,50.32,85,7,4.72,clear sky
438,Aykhal,RU,2021-08-07 22:10:00,66.0,111.5,52.48,80,100,7.52,overcast clouds
439,Ornskoldsvik,SE,2021-08-07 22:10:01,63.2909,18.7153,64.22,67,75,9.22,broken clouds
440,Pangai,TO,2021-08-07 22:10:01,-19.8,-174.35,73.02,66,38,12.71,scattered clouds
441,Tautira,PF,2021-08-07 22:03:17,-17.7333,-149.15,84.22,76,62,9.06,broken clouds
442,Kismayo,SO,2021-08-07 22:10:02,-0.3582,42.5454,75.45,82,18,16.22,few clouds
443,Imeni Poliny Osipenko,RU,2021-08-07 22:10:03,52.4201,136.4853,49.35,93,100,10.6,overcast clouds
444,Waipawa,NZ,2021-08-07 22:13:16,-41.4122,175.5153,47.03,76,100,11.92,moderate rain
445,Kholodnyy,RU,2021-08-07 22:10:04,62.7167,147.95,59.14,66,24,2.53,few clouds
446,Sechura,PE,2021-08-07 22:10:04,-5.5569,-80.8222,71.6,62,7,19.77,clear sky
447,Itoman,JP,2021-08-07 22:10:05,26.1247,127.6694,80.98,94,75,23.02,light intensity shower rain
448,Venice,US,2021-08-07 22:10:05,27.0998,-82.4543,92.05,73,1,5.99,clear sky
449,Port Blair,IN,2021-08-07 22:10:06,11.6667,92.75,81.93,83,100,14.09,overcast clouds
450,Lipin Bor,RU,2021-08-07 22:10:07,60.2622,37.9763,59.58,97,100,14.54,light rain
451,Torquay,GB,2021-08-07 22:10:07,50.4638,-3.5143,59.58,58,15,1.01,few clouds
452,Lagos,NG,2021-08-07 22:13:12,6.5833,3.75,73.85,95,100,5.61,moderate rain
453,Ambanja,MG,2021-08-07 22:13:18,-13.6833,48.45,70.45,89,100,2.21,light rain
454,Peoria,US,2021-08-07 22:08:45,40.7667,-89.7668,88.68,59,20,14.97,few clouds
455,Sao Filipe,CV,2021-08-07 22:10:08,14.8961,-24.4956,78.84,83,58,6.02,broken clouds
456,Mushie,CD,2021-08-07 22:10:08,-3.0167,16.9,80.47,54,68,8.72,broken clouds
457,Nyurba,RU,2021-08-07 22:13:19,63.2842,118.3319,63.52,85,100,8.3,overcast clouds
458,Kaele,CM,2021-08-07 22:10:08,10.1092,14.4508,72.61,90,59,9.6,light rain
459,Saint-Joseph,RE,2021-08-07 22:10:09,-21.3667,55.6167,68.36,74,18,9.98,few clouds
460,Madison Heights,US,2021-08-07 22:08:07,42.4859,-83.1052,84.88,62,40,4.61,scattered clouds
461,Saint George,US,2021-08-07 22:07:48,37.1041,-113.5841,102.63,9,1,1.01,haze
462,Sao Joao Da Barra,BR,2021-08-07 22:08:43,-21.6403,-41.0511,68.31,76,89,12.91,overcast clouds
463,Yaan,NG,2021-08-07 22:10:10,7.3833,8.5667,71.1,97,74,4.16,broken clouds
464,Bat Yam,IL,2021-08-07 22:10:04,32.0231,34.7503,82.63,80,40,6.91,scattered clouds
465,Belyy Yar,RU,2021-08-07 22:10:10,53.6039,91.3903,57.09,94,100,0.0,mist
466,Tezu,IN,2021-08-07 22:10:11,27.9167,96.1667,77.32,99,100,2.04,light rain
467,Deputatskiy,RU,2021-08-07 22:13:21,69.3,139.9,54.03,64,84,4.18,broken clouds
468,Palmas,BR,2021-08-07 22:10:11,-10.2128,-48.3603,84.07,42,0,5.75,clear sky
469,Begoro,GH,2021-08-07 22:10:12,6.3871,-0.3774,70.34,88,99,4.0,overcast clouds
470,Lompoc,US,2021-08-07 22:10:13,34.6391,-120.4579,82.56,67,1,13.8,clear sky
471,Kokoda,PG,2021-08-07 22:10:14,-8.8785,147.7407,75.74,86,97,0.72,overcast clouds
472,Sikar,IN,2021-08-07 22:10:14,27.6167,75.15,82.17,72,83,3.24,broken clouds
473,Shubarshi,KZ,2021-08-07 22:10:14,48.5872,57.1869,72.93,25,7,7.67,clear sky
474,Patacamaya,BO,2021-08-07 22:10:15,-17.2333,-67.9167,53.78,26,3,9.37,clear sky
475,Dwarka,IN,2021-08-07 22:10:15,22.2394,68.9678,81.59,77,100,13.47,overcast clouds
476,Margate,GB,2021-08-07 22:10:15,51.3813,1.3862,62.31,84,79,3.0,broken clouds
477,Chapais,CA,2021-08-07 22:11:01,49.7834,-74.8492,65.17,36,3,7.14,clear sky
478,Kalmunai,LK,2021-08-07 22:10:16,7.4167,81.8167,78.08,87,100,4.72,overcast clouds
479,Piterka,RU,2021-08-07 22:10:16,50.6803,47.4454,74.01,31,98,9.26,overcast clouds
480,Ati,TD,2021-08-07 22:10:17,13.2154,18.3353,79.2,67,83,5.1,broken clouds
481,Penzance,GB,2021-08-07 22:10:17,50.1186,-5.5371,60.01,85,36,24.94,scattered clouds
482,Tankara,IN,2021-08-07 22:08:07,22.6667,70.7333,82.81,69,61,9.37,broken clouds
483,Innisfail,AU,2021-08-07 22:10:18,-17.5333,146.0333,68.43,86,85,7.34,overcast clouds
484,Canaries,ES,2021-08-07 22:10:18,28.0,-15.5,66.16,78,20,20.71,few clouds
485,Lingao,CN,2021-08-07 22:10:18,19.9103,109.6859,83.1,76,100,2.35,light rain
486,Nador,MA,2021-08-07 22:10:19,35.174,-2.9287,77.25,53,0,18.41,clear sky
487,Nuuk,GL,2021-08-07 22:10:19,64.1835,-51.7216,45.21,87,75,6.91,light rain
488,Dabakala,CI,2021-08-07 22:10:19,8.3667,-4.4333,75.0,75,82,4.61,broken clouds
489,Konskie,PL,2021-08-07 22:10:20,51.1917,20.4061,63.01,77,48,7.02,scattered clouds
490,Honiara,SB,2021-08-07 22:05:51,-9.4333,159.95,81.99,72,99,1.25,overcast clouds
491,Axim,GH,2021-08-07 22:10:20,4.8699,-2.2405,76.15,88,19,10.49,few clouds
492,El Cobre,CU,2021-08-07 22:10:21,20.0489,-75.9469,87.24,70,40,10.36,scattered clouds
493,San Policarpo,PH,2021-08-07 22:10:21,12.1791,125.5072,79.56,83,97,4.92,overcast clouds
494,Santa Fe,AR,2021-08-07 22:06:42,-31.6333,-60.7,78.01,53,0,1.99,clear sky
495,Antiguo Morelos,MX,2021-08-07 22:10:21,22.5495,-99.0812,94.46,44,28,10.33,scattered clouds
496,Mwinilunga,ZM,2021-08-07 22:10:22,-11.7358,24.4293,60.48,30,4,4.18,clear sky
497,Juba,SS,2021-08-07 22:10:22,4.8517,31.5825,72.23,84,32,2.82,scattered clouds
498,Bud,US,2021-08-07 22:10:23,39.447,-86.1758,86.92,64,17,4.23,few clouds
499,Ossora,RU,2021-08-07 22:13:26,59.2353,163.0719,56.28,68,90,17.2,overcast clouds
500,Polunochnoye,RU,2021-08-07 22:05:41,60.8697,60.4153,52.84,92,100,6.02,overcast clouds
501,Thatta,PK,2021-08-07 22:10:23,24.7475,67.9235,81.79,70,53,14.32,broken clouds
502,Kalangala,UG,2021-08-07 22:10:24,-0.3089,32.225,74.12,67,50,4.34,scattered clouds
503,Hanstholm,DK,2021-08-07 22:10:24,57.1167,8.6167,54.63,85,48,3.74,scattered clouds
504,Grand Gaube,MU,2021-08-07 22:10:24,-20.0064,57.6608,68.4,78,33,5.01,scattered clouds
505,Makubetsu,JP,2021-08-07 22:10:25,45.3714,141.8211,63.77,94,100,26.55,moderate rain
506,Saravan,AM,2021-08-07 22:10:25,39.7196,45.6483,65.05,64,61,4.7,broken clouds
507,Naze,JP,2021-08-07 22:10:28,28.3667,129.4833,79.72,89,100,30.87,moderate rain
508,Pacifica,US,2021-08-07 22:10:25,37.6138,-122.4869,96.75,75,20,5.01,few clouds
509,Galle,LK,2021-08-07 22:10:26,6.0367,80.217,78.51,85,100,15.32,overcast clouds
510,Ewa Beach,US,2021-08-07 22:10:26,21.3156,-158.0072,85.95,54,40,14.97,scattered clouds
511,Benghazi,LY,2021-08-07 22:10:26,32.1167,20.0667,81.01,71,0,12.1,clear sky
512,Fort Saint James,CA,2021-08-07 22:10:27,54.4333,-124.25,67.62,38,97,10.18,overcast clouds
513,Kamarai,GR,2021-08-07 22:10:28,38.3,22.0,79.63,65,0,1.99,clear sky
514,Batemans Bay,AU,2021-08-07 22:13:30,-35.7167,150.1833,50.92,75,97,5.01,overcast clouds
515,Makarov,RU,2021-08-07 22:10:28,48.6333,142.8,56.01,86,100,19.35,moderate rain
516,Reconquista,AR,2021-08-07 22:10:14,-29.15,-59.65,75.58,37,1,7.9,clear sky
517,Akyab,MM,2021-08-07 22:04:36,20.15,92.9,79.88,84,55,0.98,broken clouds
518,Luba,GQ,2021-08-07 22:10:29,3.4568,8.5547,76.82,82,99,3.47,overcast clouds
519,Bhum,IN,2021-08-07 22:10:29,18.4667,75.6667,74.39,85,63,8.99,broken clouds
520,Dakar,SN,2021-08-07 22:00:53,14.6937,-17.4441,81.48,81,20,14.36,few clouds
521,Pyapon,MM,2021-08-07 22:10:29,16.2833,95.6833,78.42,90,98,5.77,overcast clouds
522,Toyooka,JP,2021-08-07 22:10:30,35.5333,134.8333,77.11,77,1,0.85,clear sky
523,Amudat,UG,2021-08-07 22:10:30,1.95,34.95,70.5,62,63,1.39,broken clouds
524,Jalu,LY,2021-08-07 22:05:43,29.0331,21.5482,88.0,33,0,13.42,clear sky
525,Prado,BR,2021-08-07 22:10:31,-17.3411,-39.2208,68.45,83,86,11.25,overcast clouds
526,Jonava,LT,2021-08-07 22:10:31,55.0833,24.2833,59.11,87,59,1.14,fog
527,Tura,IN,2021-08-07 22:10:12,25.5198,90.2201,74.25,98,100,4.97,overcast clouds
528,Poroszlo,HU,2021-08-07 22:10:32,47.65,20.6667,69.75,48,55,8.55,broken clouds
529,Nouadhibou,MR,2021-08-07 22:10:32,20.931,-17.0347,69.78,88,0,8.05,clear sky
530,Pacific Grove,US,2021-08-07 22:07:57,36.6177,-121.9166,93.56,76,20,7.0,few clouds
531,Minab,IR,2021-08-07 22:10:33,27.1467,57.0801,90.9,61,5,3.06,clear sky
532,Ciudad Bolivar,VE,2021-08-07 22:05:36,8.1222,-63.5497,86.88,55,51,3.18,broken clouds
533,Puerto Suarez,BO,2021-08-07 22:10:34,-18.95,-57.8,83.1,26,0,3.11,clear sky
534,Redmond,US,2021-08-07 22:08:36,47.674,-122.1215,76.08,65,100,1.99,overcast clouds
535,Rawson,AR,2021-08-07 22:10:34,-43.3002,-65.1023,52.43,37,3,22.26,clear sky
536,Mogadishu,SO,2021-08-07 22:10:35,2.0371,45.3438,75.97,85,82,19.93,broken clouds
537,Sao Gotardo,BR,2021-08-07 22:10:35,-19.3111,-46.0489,59.63,59,100,2.24,overcast clouds
538,Buala,SB,2021-08-07 22:13:35,-8.145,159.5921,79.75,78,100,2.39,light rain
539,Dakoro,NE,2021-08-07 22:10:35,14.5106,6.765,80.85,55,80,12.35,broken clouds
540,Yukhnov,RU,2021-08-07 22:10:36,54.7444,35.2297,62.85,98,97,4.03,overcast clouds
541,Dharampuri,IN,2021-08-07 22:10:36,22.1667,75.35,78.53,87,84,4.07,broken clouds
542,Larap,PH,2021-08-07 22:10:36,14.299,122.6504,79.27,90,93,5.91,overcast clouds
543,Havre,FR,2021-08-07 22:10:37,49.5833,0.3333,59.43,88,75,23.02,broken clouds
544,Bela Vista,BR,2021-08-07 22:10:37,-22.1089,-56.5211,79.05,27,0,5.55,clear sky
545,Kutum,SD,2021-08-07 22:10:38,14.2,24.6667,75.09,63,89,9.82,overcast clouds
546,Mpika,ZM,2021-08-07 22:10:39,-11.8343,31.4529,55.98,54,0,2.39,clear sky
547,Garissa,KE,2021-08-07 22:10:39,-0.4536,39.6401,73.17,74,29,16.51,scattered clouds
548,Sakaiminato,JP,2021-08-07 22:10:40,35.55,133.2333,78.73,78,23,4.45,few clouds
549,Monrovia,LR,2021-08-07 22:10:40,6.3005,-10.7969,76.77,78,30,8.99,scattered clouds
550,Goryachegorsk,RU,2021-08-07 22:10:40,55.4053,88.9154,55.51,94,100,3.96,overcast clouds
551,Sonda,EE,2021-08-07 22:10:41,59.3436,26.8364,59.56,97,84,6.11,broken clouds
552,Parabel,RU,2021-08-07 22:10:41,58.6978,81.4825,60.87,93,100,4.09,overcast clouds
553,Zabid,YE,2021-08-07 22:10:41,14.1951,43.3152,88.97,53,99,7.96,overcast clouds
554,Iseyin,NG,2021-08-07 22:10:42,7.9667,3.6,72.54,93,100,5.28,light rain
555,Kichera,RU,2021-08-07 22:10:42,55.9375,110.0997,59.02,80,96,4.81,overcast clouds
556,Tuatapere,NZ,2021-08-07 22:10:42,-46.1333,167.6833,36.82,95,100,1.79,overcast clouds
557,Humaita,BR,2021-08-07 22:10:43,-7.5061,-63.0208,87.37,29,2,1.23,clear sky
558,Lorengau,PG,2021-08-07 22:07:49,-2.0226,147.2712,81.61,76,63,9.71,broken clouds
559,Pozo Colorado,PY,2021-08-07 22:10:43,-23.4923,-58.7972,80.06,27,1,5.46,clear sky
560,Vestmanna,FO,2021-08-07 22:10:44,62.1564,-7.1664,58.12,77,20,18.41,few clouds
561,Ligatne,LV,2021-08-07 22:10:44,57.2343,25.0406,63.25,96,74,1.99,broken clouds
562,Dodge City,US,2021-08-07 22:06:57,37.7528,-100.0171,99.91,28,1,25.32,clear sky
563,Manyana,BW,2021-08-07 22:10:44,-23.4,21.7167,58.73,25,0,6.31,clear sky
564,Fershampenuaz,RU,2021-08-07 22:10:45,53.5202,59.8117,53.28,68,5,6.6,clear sky
565,Bosaso,SO,2021-08-07 22:10:45,11.2842,49.1816,89.64,48,29,4.18,scattered clouds
566,Saint-Louis,SN,2021-08-07 22:10:46,16.3333,-15.0,85.15,60,41,17.58,scattered clouds
567,Japura,ID,2021-08-07 22:13:40,-0.3167,102.35,76.46,94,99,2.44,overcast clouds
568,Zephyrhills,US,2021-08-07 22:10:46,28.2336,-82.1812,89.87,84,77,7.34,broken clouds
569,Xichang,CN,2021-08-07 22:10:46,27.8964,102.2634,68.32,92,97,1.72,light rain
570,Benguela,AO,2021-08-07 22:13:41,-12.5763,13.4055,72.05,83,67,0.67,broken clouds
571,Bozoum,CF,2021-08-07 22:13:41,6.3193,16.3799,67.62,98,95,4.5,overcast clouds
572,Acajutla,SV,2021-08-07 22:03:55,13.5928,-89.8275,93.79,65,66,4.54,broken clouds
573,Makungu,TZ,2021-08-07 22:10:47,-8.7333,35.2833,55.15,85,8,2.1,clear sky
574,Zhangzhou,CN,2021-08-07 22:10:48,24.5133,117.6556,78.84,95,100,2.26,overcast clouds
575,Vondrozo,MG,2021-08-07 22:10:48,-22.8167,47.2833,56.46,97,4,3.42,clear sky
576,Solnechnyy,RU,2021-08-07 22:10:49,50.7214,136.6319,48.06,98,100,9.24,light rain
577,Saint Anthony,US,2021-08-07 22:10:49,45.0205,-93.218,73.65,87,90,1.01,overcast clouds
578,Polovinnoye,RU,2021-08-07 22:10:50,54.7914,65.9864,58.96,71,76,4.88,broken clouds
579,Khani,GE,2021-08-07 22:04:13,41.9563,42.9566,65.77,87,67,6.49,broken clouds
580,Anloga,GH,2021-08-07 22:04:18,5.7947,0.8973,76.89,85,100,15.5,light rain
581,Le Port,RE,2021-08-07 22:13:43,-20.9373,55.2919,69.76,70,15,8.63,few clouds
582,Manono,CD,2021-08-07 22:10:51,-7.3,27.4167,77.23,24,75,3.04,broken clouds
583,Nemuro,JP,2021-08-07 22:13:44,43.3236,145.575,66.78,98,64,13.42,broken clouds
584,Xiantao,CN,2021-08-07 22:10:51,30.3833,113.4,76.23,96,48,6.24,scattered clouds
585,Capitao Poco,BR,2021-08-07 22:10:51,-1.7464,-47.0594,75.87,83,61,6.08,broken clouds
586,Nabire,ID,2021-08-07 22:08:05,-3.3667,135.4833,75.47,90,69,2.75,broken clouds
587,Tocopilla,CL,2021-08-07 22:10:52,-22.092,-70.1979,60.8,68,23,4.52,few clouds
588,Ilebo,CD,2021-08-07 22:10:52,-4.3167,20.5833,74.5,51,88,2.84,overcast clouds
589,Forbes,AU,2021-08-07 22:10:52,-33.3833,148.0167,39.2,82,0,4.76,clear sky
590,Catuday,PH,2021-08-07 22:03:55,16.2923,119.8062,80.37,84,100,16.31,light rain
591,Gunjur,GM,2021-08-07 22:10:53,13.2019,-16.7339,80.67,89,40,6.91,scattered clouds
592,Roald,NO,2021-08-07 22:10:53,62.5833,6.1333,68.05,77,20,4.61,few clouds
593,Sola,VU,2021-08-07 22:10:54,-13.8833,167.55,78.49,78,86,20.71,overcast clouds
594,Sur,OM,2021-08-07 22:10:54,22.5667,59.5289,89.64,53,94,11.65,overcast clouds
595,Mitchell,US,2021-08-07 22:09:23,43.7094,-98.0298,89.58,55,1,4.61,clear sky
596,Arlit,NE,2021-08-07 22:10:55,18.7369,7.3853,101.14,16,64,6.31,broken clouds
597,Kathu,TH,2021-08-07 22:10:55,7.9178,98.3332,82.22,81,93,9.19,overcast clouds
598,Kailua,US,2021-08-07 22:03:42,21.4022,-157.7394,83.14,67,19,20.47,few clouds
599,Casa Quemada,HN,2021-08-07 22:10:56,15.1167,-88.0833,78.96,58,100,5.64,light rain
600,Mananara,MG,2021-08-07 22:10:56,-16.1667,49.7667,65.23,93,57,3.94,broken clouds
601,Porto Novo,BJ,2021-08-07 22:05:48,6.4965,2.6036,74.53,93,100,4.25,light rain
602,Nioki,CD,2021-08-07 22:10:56,-2.7167,17.6833,78.1,61,79,7.05,broken clouds
603,Eidsvag,NO,2021-08-07 22:10:57,62.7767,8.0668,68.05,59,100,8.03,overcast clouds
604,Bemidji,US,2021-08-07 22:10:57,47.4736,-94.8803,79.18,57,1,12.66,clear sky
605,Road Town,VG,2021-08-07 22:06:45,18.4167,-64.6167,86.09,74,20,6.91,few clouds
606,Tazovskiy,RU,2021-08-07 22:13:48,67.4667,78.7,55.45,82,9,4.18,clear sky
607,Bandarbeyla,SO,2021-08-07 22:10:58,9.4942,50.8122,75.24,85,11,30.02,few clouds
608,Bubaque,GW,2021-08-07 22:13:48,11.2833,-15.8333,79.7,75,12,12.28,few clouds
609,Davenport,US,2021-08-07 22:07:42,41.5236,-90.5776,87.67,66,20,1.01,few clouds
610,Chabahar,IR,2021-08-07 22:04:13,25.2919,60.643,82.31,83,85,9.17,overcast clouds
611,Mumford,GH,2021-08-07 22:10:59,5.2618,-0.759,75.76,86,67,16.04,broken clouds
612,Sinnamary,GF,2021-08-07 22:11:00,5.3833,-52.95,78.91,83,99,4.47,overcast clouds
613,Turukhansk,RU,2021-08-07 22:11:00,65.8167,87.9833,58.86,71,32,2.42,scattered clouds
614,Mackay,AU,2021-08-07 22:13:50,-21.15,149.2,63.05,80,3,11.32,clear sky
615,Sanchor,IN,2021-08-07 22:11:00,24.7553,71.7722,85.35,66,15,10.85,few clouds
616,Vozrozhdeniye,RU,2021-08-07 22:11:01,44.5503,38.2136,78.24,89,80,6.62,heavy intensity rain
617,Tiarei,PF,2021-08-07 22:11:01,-17.5333,-149.3333,84.22,75,56,8.7,broken clouds
618,Emerald,AU,2021-08-07 22:11:02,-23.5333,148.1667,52.23,51,0,14.65,clear sky
619,Neiafu,TO,2021-08-07 22:11:02,-18.65,-173.9833,75.88,60,20,6.91,few clouds
620,Sheffield,GB,2021-08-07 22:06:05,53.383,-1.4659,60.57,90,95,4.0,overcast clouds
621,Asmar,AF,2021-08-07 22:11:03,35.0333,71.3581,77.43,69,62,2.98,broken clouds
622,Fort-Shevchenko,KZ,2021-08-07 22:11:03,44.5086,50.263,88.81,30,0,23.35,clear sky
623,Gizo,SB,2021-08-07 22:11:04,-8.103,156.8419,81.57,77,84,11.83,light rain
624,Guarapari,BR,2021-08-07 22:06:52,-20.6667,-40.4975,66.09,79,100,6.22,overcast clouds
625,Evensk,RU,2021-08-07 22:11:04,61.95,159.2333,60.98,58,4,13.4,clear sky
626,Plettenberg Bay,ZA,2021-08-07 22:11:05,-34.0527,23.3716,58.86,54,98,3.67,overcast clouds
627,Hearst,CA,2021-08-07 22:11:05,49.6835,-83.6665,70.36,37,3,6.15,clear sky
628,Karratha,AU,2021-08-07 22:11:06,-20.7377,116.8463,68.85,55,63,8.34,broken clouds
629,Staunton,US,2021-08-07 22:09:29,38.1496,-79.0717,83.95,51,1,0.0,clear sky
630,Urla,TR,2021-08-07 22:11:06,38.3229,26.764,79.2,54,0,9.48,clear sky
631,Anderson,US,2021-08-07 22:11:06,34.5334,-82.6499,85.08,78,1,9.22,clear sky
632,Corinth,GR,2021-08-07 22:07:28,37.9407,22.9573,82.49,60,0,2.95,clear sky
633,Yarmouth,US,2021-08-07 22:11:07,41.7057,-70.2286,84.18,72,1,5.99,clear sky
634,Pasighat,IN,2021-08-07 22:08:17,28.0667,95.3333,78.51,97,100,2.35,heavy intensity rain
635,Ulladulla,AU,2021-08-07 22:11:07,-35.35,150.4667,50.88,79,89,6.53,overcast clouds
636,Sao Miguel,BR,2021-08-07 22:11:08,-5.4667,-35.3667,77.77,77,49,19.19,scattered clouds
637,Bonnyville,CA,2021-08-07 22:11:08,54.2668,-110.735,57.0,47,82,8.72,broken clouds
638,Almaznyy,RU,2021-08-07 22:11:08,48.0448,40.045,86.14,28,100,6.17,light rain
639,Vanderhoof,CA,2021-08-07 22:11:09,54.0166,-124.0198,71.47,32,78,10.71,broken clouds
640,Camana,PE,2021-08-07 22:11:09,-16.6228,-72.7111,61.63,82,56,6.51,broken clouds
641,Lashio,MM,2021-08-07 22:11:09,22.9333,97.75,67.62,99,97,0.51,overcast clouds
642,Mecca,SA,2021-08-07 22:05:42,21.4267,39.8261,88.97,47,13,8.79,few clouds
643,Asau,RO,2021-08-07 22:05:13,46.4333,26.4,59.95,94,1,2.73,clear sky
644,Gondar,ET,2021-08-07 22:11:11,12.6,37.4667,56.82,83,96,1.41,overcast clouds
645,Bongandanga,CD,2021-08-07 22:11:11,1.5,21.05,69.24,97,99,2.86,light rain
646,Saint-Georges,GD,2021-08-07 22:11:11,12.0564,-61.7485,83.88,74,20,14.97,few clouds
647,Barabinsk,RU,2021-08-07 22:11:12,55.3571,78.357,61.38,85,77,5.21,broken clouds
648,Tutoia,BR,2021-08-07 22:11:12,-2.7619,-42.2744,79.52,76,17,10.89,few clouds
649,Surt,LY,2021-08-07 22:13:56,31.2089,16.5887,81.34,74,0,13.6,clear sky
650,Witham,GB,2021-08-07 22:11:13,51.8001,0.6404,61.74,90,67,17.2,broken clouds
651,Ebolowa,CM,2021-08-07 22:11:13,2.9,11.15,68.13,98,100,3.24,overcast clouds
652,Coffs Harbour,AU,2021-08-07 22:11:13,-30.3,153.1333,59.13,67,30,10.36,scattered clouds
653,Bakaly,RU,2021-08-07 22:11:14,55.1789,53.8028,57.87,76,82,3.09,broken clouds
654,Espinosa,BR,2021-08-07 22:11:14,-14.9261,-42.8192,70.02,34,87,9.91,overcast clouds
655,Pisco,PE,2021-08-07 22:11:15,-13.7,-76.2167,64.45,72,20,17.27,few clouds
656,Vanavara,RU,2021-08-07 22:11:15,60.34,102.2797,50.94,69,20,3.36,few clouds
657,Baiyin,CN,2021-08-07 22:11:15,36.5583,104.2081,67.17,43,98,19.84,overcast clouds
658,Kirakira,SB,2021-08-07 22:11:16,-10.4544,161.9205,81.54,74,96,6.15,overcast clouds
659,Palmer,US,2021-08-07 22:11:16,42.1584,-72.3287,82.92,63,90,1.01,overcast clouds
660,Vallenar,CL,2021-08-07 22:04:32,-28.5708,-70.7581,58.08,58,0,6.13,clear sky
661,Bar Harbor,US,2021-08-07 22:11:16,44.3876,-68.2039,79.29,75,1,8.05,clear sky
662,Sao Felix Do Xingu,BR,2021-08-07 22:11:17,-6.6447,-51.995,82.44,34,38,2.68,scattered clouds
663,Zweibrucken,DE,2021-08-07 22:11:17,49.25,7.3667,61.12,88,7,11.77,clear sky
664,Sakakah,SA,2021-08-07 22:04:03,29.9697,40.2064,90.72,16,0,2.91,clear sky
665,Nueva Gorgona,PA,2021-08-07 22:11:18,8.55,-79.8667,82.4,73,100,4.79,overcast clouds
666,Nyagan,RU,2021-08-07 22:11:18,62.1406,65.3936,60.64,81,67,3.74,broken clouds
667,Yerofey Pavlovich,RU,2021-08-07 22:05:17,53.9667,121.9667,57.88,97,100,8.39,overcast clouds
668,La Romana,DO,2021-08-07 22:11:19,18.4273,-68.9728,86.36,70,40,6.91,scattered clouds
669,Taksimo,RU,2021-08-07 22:11:19,56.3444,114.8794,59.09,98,100,2.21,moderate rain
670,Ures,MX,2021-08-07 22:11:19,29.4333,-110.4,97.25,44,47,9.64,scattered clouds
671,Davila,PH,2021-08-07 22:11:12,18.4726,120.5763,81.86,85,100,21.9,light rain
672,Maneadero,MX,2021-08-07 22:11:20,31.7167,-116.5667,82.18,74,19,3.0,few clouds
673,Chernyshevskiy,RU,2021-08-07 22:14:01,63.0128,112.4714,56.48,95,100,2.21,moderate rain
674,Talakan,RU,2021-08-07 22:11:21,50.3167,130.3667,58.05,93,100,12.03,moderate rain
675,La Ligua,CL,2021-08-07 22:11:21,-32.4524,-71.2311,55.18,76,43,4.76,scattered clouds
676,Alekseyevskaya,RU,2021-08-07 22:11:22,50.2896,42.1845,74.57,31,99,9.06,overcast clouds
677,Ballina,AU,2021-08-07 22:11:22,-28.8667,153.5667,55.78,76,47,15.32,scattered clouds
678,Izhma,RU,2021-08-07 22:11:23,65.0083,53.9113,44.46,97,72,4.97,broken clouds
679,Kerema,PG,2021-08-07 22:11:23,-7.9631,145.7785,75.61,88,100,3.36,overcast clouds
680,Dunedin,NZ,2021-08-07 22:07:48,-45.8742,170.5036,41.81,75,100,7.72,overcast clouds
681,Nur,PL,2021-08-07 22:11:23,52.6683,22.3221,61.79,84,8,7.58,clear sky
682,Moron,AR,2021-08-07 22:14:02,-34.6534,-58.6198,72.0,74,7,4.59,clear sky
683,Salalah,OM,2021-08-07 22:14:03,17.0151,54.0924,77.09,94,90,5.75,light intensity drizzle
684,Belaya Gora,RU,2021-08-07 22:11:24,68.5333,146.4167,59.59,58,25,5.77,scattered clouds
685,Pudur,IN,2021-08-07 22:11:24,13.0,79.15,81.82,64,95,10.09,overcast clouds
686,Bima,ID,2021-08-07 22:11:25,-8.4667,118.7167,72.43,94,90,4.41,overcast clouds
687,El Retorno,CO,2021-08-07 22:11:25,2.3302,-72.6276,77.41,82,93,2.26,overcast clouds
